[
    {
        "id": "1",
        "name": "City General Hospital",
        "address": "123 Healthcare Ave",
        "city": "New York",
        "state": "NY",
        "latitude": 40.7128,
        "longitude": -74.0060,
        "specialties": ["General Medicine", "Emergency Care", "Surgery"],
        "rating": 4.5,
        "phone": "(555) 123-4567",
        "website": "http://citygeneralhospital.com",
        "description": "A leading healthcare facility providing comprehensive medical services.",
        "imageUrl": "/images/hospitals/city-general.jpg"
    },
    {
        "id": "2",
        "name": "Wellness Medical Center",
        "address": "456 Healing Blvd",
        "city": "Los Angeles",
        "state": "CA",
        "latitude": 34.0522,
        "longitude": -118.2437,
        "specialties": ["Cardiology", "Oncology", "Pediatrics"],
        "rating": 4.8,
        "phone": "(555) 234-5678",
        "website": "http://wellnessmedical.com",
        "description": "State-of-the-art medical center specializing in advanced treatments.",
        "imageUrl": "/images/hospitals/wellness-medical.jpg"
    },
    {
        "id": "3",
        "name": "Community Care Hospital",
        "address": "789 Health Street",
        "city": "Chicago",
        "state": "IL",
        "latitude": 41.8781,
        "longitude": -87.6298,
        "specialties": ["Family Medicine", "Orthopedics", "Neurology"],
        "rating": 4.2,
        "phone": "(555) 345-6789",
        "website": "http://communitycare.com",
        "description": "Your trusted community hospital providing personalized care.",
        "imageUrl": "/images/hospitals/community-care.jpg"
    }
] 